{
  "type": "FeatureCollection",
  "features": [
    {
      "type": "Feature",
      "geometry": {
        "type": "Point",
        "coordinates": [
          7.5445317,
          50.9031954
        ]
      },
      "properties": {
        "street": "Poststraße",
        "house_number": "",
        "postal_code": "51588",
        "city": "Nümbrecht",
        "full_address": "Poststraße, 51588 Nümbrecht"
      }
    },
    {
      "type": "Feature",
      "geometry": {
        "type": "Point",
        "coordinates": [
          7.5423655,
          50.8974904
        ]
      },
      "properties": {
        "street": "Amselweg",
        "house_number": "",
        "postal_code": "51588",
        "city": "Nümbrecht",
        "full_address": "Amselweg, 51588 Nümbrecht"
      }
    },
    {
      "type": "Feature",
      "geometry": {
        "type": "Point",
        "coordinates": [
          7.5421976,
          50.9002009
        ]
      },
      "properties": {
        "street": "Bitzenweg",
        "house_number": "",
        "postal_code": "51588",
        "city": "Nümbrecht",
        "full_address": "Bitzenweg, 51588 Nümbrecht"
      }
    },
    {
      "type": "Feature",
      "geometry": {
        "type": "Point",
        "coordinates": [
          7.5447469,
          50.9017034
        ]
      },
      "properties": {
        "street": "Bornenweg",
        "house_number": "",
        "postal_code": "51588",
        "city": "Nümbrecht",
        "full_address": "Bornenweg, 51588 Nümbrecht"
      }
    },
    {
      "type": "Feature",
      "geometry": {
        "type": "Point",
        "coordinates": [
          7.5492144,
          50.9009632
        ]
      },
      "properties": {
        "street": "Dr.-Horst-Frese-Straße",
        "house_number": "",
        "postal_code": "51588",
        "city": "Nümbrecht",
        "full_address": "Dr.-Horst-Frese-Straße, 51588 Nümbrecht"
      }
    },
    {
      "type": "Feature",
      "geometry": {
        "type": "Point",
        "coordinates": [
          7.5419391,
          50.9028606
        ]
      },
      "properties": {
        "street": "Dr.-Rieck-Straße",
        "house_number": "",
        "postal_code": "51588",
        "city": "Nümbrecht",
        "full_address": "Dr.-Rieck-Straße, 51588 Nümbrecht"
      }
    },
    {
      "type": "Feature",
      "geometry": {
        "type": "Point",
        "coordinates": [
          7.5417516,
          50.9000897
        ]
      },
      "properties": {
        "street": "Finkenweg",
        "house_number": "",
        "postal_code": "51588",
        "city": "Nümbrecht",
        "full_address": "Finkenweg, 51588 Nümbrecht"
      }
    },
    {
      "type": "Feature",
      "geometry": {
        "type": "Point",
        "coordinates": [
          7.5437799,
          50.9011411
        ]
      },
      "properties": {
        "street": "Jakob-Engels-Straße",
        "house_number": "",
        "postal_code": "51588",
        "city": "Nümbrecht",
        "full_address": "Jakob-Engels-Straße, 51588 Nümbrecht"
      }
    },
    {
      "type": "Feature",
      "geometry": {
        "type": "Point",
        "coordinates": [
          7.542596,
          50.9032281
        ]
      },
      "properties": {
        "street": "Meta-Herz-Straße",
        "house_number": "",
        "postal_code": "51588",
        "city": "Nümbrecht",
        "full_address": "Meta-Herz-Straße, 51588 Nümbrecht"
      }
    },
    {
      "type": "Feature",
      "geometry": {
        "type": "Point",
        "coordinates": [
          7.5421419,
          50.8990181
        ]
      },
      "properties": {
        "street": "Nachtigallenweg",
        "house_number": "",
        "postal_code": "51588",
        "city": "Nümbrecht",
        "full_address": "Nachtigallenweg, 51588 Nümbrecht"
      }
    },
    {
      "type": "Feature",
      "geometry": {
        "type": "Point",
        "coordinates": [
          7.540799,
          50.9087167
        ]
      },
      "properties": {
        "street": "Bahnhofstraße",
        "house_number": "",
        "postal_code": "51588",
        "city": "Nümbrecht",
        "full_address": "Bahnhofstraße, 51588 Nümbrecht"
      }
    },
    {
      "type": "Feature",
      "geometry": {
        "type": "Point",
        "coordinates": [
          7.5436556,
          50.9062557
        ]
      },
      "properties": {
        "street": "Gärtnerweg",
        "house_number": "",
        "postal_code": "51588",
        "city": "Nümbrecht",
        "full_address": "Gärtnerweg, 51588 Nümbrecht"
      }
    },
    {
      "type": "Feature",
      "geometry": {
        "type": "Point",
        "coordinates": [
          7.5451492,
          50.910077
        ]
      },
      "properties": {
        "street": "Höhenstraße",
        "house_number": "",
        "postal_code": "51588",
        "city": "Nümbrecht",
        "full_address": "Höhenstraße, 51588 Nümbrecht"
      }
    },
    {
      "type": "Feature",
      "geometry": {
        "type": "Point",
        "coordinates": [
          7.5367495,
          50.9087664
        ]
      },
      "properties": {
        "street": "Kirchweg",
        "house_number": "",
        "postal_code": "51588",
        "city": "Nümbrecht",
        "full_address": "Kirchweg, 51588 Nümbrecht"
      }
    },
    {
      "type": "Feature",
      "geometry": {
        "type": "Point",
        "coordinates": [
          7.5444605,
          50.9088631
        ]
      },
      "properties": {
        "street": "Kapellenweg",
        "house_number": "",
        "postal_code": "51588",
        "city": "Nümbrecht",
        "full_address": "Kapellenweg, 51588 Nümbrecht"
      }
    },
    {
      "type": "Feature",
      "geometry": {
        "type": "Point",
        "coordinates": [
          7.5463694,
          50.9061896
        ]
      },
      "properties": {
        "street": "Lindchenweg",
        "house_number": "",
        "postal_code": "51588",
        "city": "Nümbrecht",
        "full_address": "Lindchenweg, 51588 Nümbrecht"
      }
    },
    {
      "type": "Feature",
      "geometry": {
        "type": "Point",
        "coordinates": [
          7.542955,
          50.9035481
        ]
      },
      "properties": {
        "street": "Parkstraße",
        "house_number": "",
        "postal_code": "51588",
        "city": "Nümbrecht",
        "full_address": "Parkstraße, 51588 Nümbrecht"
      }
    },
    {
      "type": "Feature",
      "geometry": {
        "type": "Point",
        "coordinates": [
          7.5448432,
          50.9039982
        ]
      },
      "properties": {
        "street": "Weiherstraße",
        "house_number": "",
        "postal_code": "51588",
        "city": "Nümbrecht",
        "full_address": "Weiherstraße, 51588 Nümbrecht"
      }
    },
    {
      "type": "Feature",
      "geometry": {
        "type": "Point",
        "coordinates": [
          7.5345047,
          50.903157
        ]
      },
      "properties": {
        "street": "Anemonenweg",
        "house_number": "",
        "postal_code": "51588",
        "city": "Nümbrecht",
        "full_address": "Anemonenweg, 51588 Nümbrecht"
      }
    },
    {
      "type": "Feature",
      "geometry": {
        "type": "Point",
        "coordinates": [
          7.5416675,
          50.9032372
        ]
      },
      "properties": {
        "street": "Dorfplatz",
        "house_number": "",
        "postal_code": "51588",
        "city": "Nümbrecht",
        "full_address": "Dorfplatz, 51588 Nümbrecht"
      }
    },
    {
      "type": "Feature",
      "geometry": {
        "type": "Point",
        "coordinates": [
          7.5373575,
          50.9060209
        ]
      },
      "properties": {
        "street": "Erlenweg",
        "house_number": "",
        "postal_code": "51588",
        "city": "Nümbrecht",
        "full_address": "Erlenweg, 51588 Nümbrecht"
      }
    },
    {
      "type": "Feature",
      "geometry": {
        "type": "Point",
        "coordinates": [
          7.5407896,
          50.9068846
        ]
      },
      "properties": {
        "street": "Feldstraße",
        "house_number": "",
        "postal_code": "51588",
        "city": "Nümbrecht",
        "full_address": "Feldstraße, 51588 Nümbrecht"
      }
    },
    {
      "type": "Feature",
      "geometry": {
        "type": "Point",
        "coordinates": [
          7.5385063,
          50.9061651
        ]
      },
      "properties": {
        "street": "Friedhofstraße",
        "house_number": "",
        "postal_code": "51588",
        "city": "Nümbrecht",
        "full_address": "Friedhofstraße, 51588 Nümbrecht"
      }
    },
    {
      "type": "Feature",
      "geometry": {
        "type": "Point",
        "coordinates": [
          7.534771,
          50.902855
        ]
      },
      "properties": {
        "street": "Glockenblumenweg",
        "house_number": "",
        "postal_code": "51588",
        "city": "Nümbrecht",
        "full_address": "Glockenblumenweg, 51588 Nümbrecht"
      }
    },
    {
      "type": "Feature",
      "geometry": {
        "type": "Point",
        "coordinates": [
          7.5348045,
          50.9036999
        ]
      },
      "properties": {
        "street": "Gouvieuxstraße",
        "house_number": "",
        "postal_code": "51588",
        "city": "Nümbrecht",
        "full_address": "Gouvieuxstraße, 51588 Nümbrecht"
      }
    },
    {
      "type": "Feature",
      "geometry": {
        "type": "Point",
        "coordinates": [
          7.5409326,
          50.9020173
        ]
      },
      "properties": {
        "street": "Hauptstraße",
        "house_number": "",
        "postal_code": "51588",
        "city": "Nümbrecht",
        "full_address": "Hauptstraße, 51588 Nümbrecht"
      }
    },
    {
      "type": "Feature",
      "geometry": {
        "type": "Point",
        "coordinates": [
          7.5369569,
          50.9022486
        ]
      },
      "properties": {
        "street": "Heckenrosenweg",
        "house_number": "",
        "postal_code": "51588",
        "city": "Nümbrecht",
        "full_address": "Heckenrosenweg, 51588 Nümbrecht"
      }
    },
    {
      "type": "Feature",
      "geometry": {
        "type": "Point",
        "coordinates": [
          7.5363904,
          50.9027287
        ]
      },
      "properties": {
        "street": "Kornblumenweg",
        "house_number": "",
        "postal_code": "51588",
        "city": "Nümbrecht",
        "full_address": "Kornblumenweg, 51588 Nümbrecht"
      }
    },
    {
      "type": "Feature",
      "geometry": {
        "type": "Point",
        "coordinates": [
          7.5385338,
          50.9042478
        ]
      },
      "properties": {
        "street": "Leo-Baer-Straße",
        "house_number": "",
        "postal_code": "51588",
        "city": "Nümbrecht",
        "full_address": "Leo-Baer-Straße, 51588 Nümbrecht"
      }
    },
    {
      "type": "Feature",
      "geometry": {
        "type": "Point",
        "coordinates": [
          7.5376838,
          50.9023145
        ]
      },
      "properties": {
        "street": "Lilienweg",
        "house_number": "",
        "postal_code": "51588",
        "city": "Nümbrecht",
        "full_address": "Lilienweg, 51588 Nümbrecht"
      }
    },
    {
      "type": "Feature",
      "geometry": {
        "type": "Point",
        "coordinates": [
          7.5414121,
          50.9030022
        ]
      },
      "properties": {
        "street": "Lina-Friedrichs-Straße",
        "house_number": "",
        "postal_code": "51588",
        "city": "Nümbrecht",
        "full_address": "Lina-Friedrichs-Straße, 51588 Nümbrecht"
      }
    },
    {
      "type": "Feature",
      "geometry": {
        "type": "Point",
        "coordinates": [
          7.5391761,
          50.9026605
        ]
      },
      "properties": {
        "street": "Marktstraße",
        "house_number": "",
        "postal_code": "51588",
        "city": "Nümbrecht",
        "full_address": "Marktstraße, 51588 Nümbrecht"
      }
    },
    {
      "type": "Feature",
      "geometry": {
        "type": "Point",
        "coordinates": [
          7.5360799,
          50.9041152
        ]
      },
      "properties": {
        "street": "Mateh-Yehuda-Straße",
        "house_number": "",
        "postal_code": "51588",
        "city": "Nümbrecht",
        "full_address": "Mateh-Yehuda-Straße, 51588 Nümbrecht"
      }
    },
    {
      "type": "Feature",
      "geometry": {
        "type": "Point",
        "coordinates": [
          7.5335673,
          50.9029227
        ]
      },
      "properties": {
        "street": "Rotkleeweg",
        "house_number": "",
        "postal_code": "51588",
        "city": "Nümbrecht",
        "full_address": "Rotkleeweg, 51588 Nümbrecht"
      }
    },
    {
      "type": "Feature",
      "geometry": {
        "type": "Point",
        "coordinates": [
          7.5300913,
          50.9030308
        ]
      },
      "properties": {
        "street": "Sängertsweg",
        "house_number": "",
        "postal_code": "51588",
        "city": "Nümbrecht",
        "full_address": "Sängertsweg, 51588 Nümbrecht"
      }
    },
    {
      "type": "Feature",
      "geometry": {
        "type": "Point",
        "coordinates": [
          7.538464,
          50.9012939
        ]
      },
      "properties": {
        "street": "Schulstraße",
        "house_number": "",
        "postal_code": "51588",
        "city": "Nümbrecht",
        "full_address": "Schulstraße, 51588 Nümbrecht"
      }
    },
    {
      "type": "Feature",
      "geometry": {
        "type": "Point",
        "coordinates": [
          7.5410559,
          50.9026286
        ]
      },
      "properties": {
        "street": "Schustergasse",
        "house_number": "",
        "postal_code": "51588",
        "city": "Nümbrecht",
        "full_address": "Schustergasse, 51588 Nümbrecht"
      }
    },
    {
      "type": "Feature",
      "geometry": {
        "type": "Point",
        "coordinates": [
          7.537209,
          50.9057286
        ]
      },
      "properties": {
        "street": "Wiesenstraße",
        "house_number": "",
        "postal_code": "51588",
        "city": "Nümbrecht",
        "full_address": "Wiesenstraße, 51588 Nümbrecht"
      }
    },
    {
      "type": "Feature",
      "geometry": {
        "type": "Point",
        "coordinates": [
          7.5364263,
          50.9007148
        ]
      },
      "properties": {
        "street": "Akeleiweg",
        "house_number": "",
        "postal_code": "51588",
        "city": "Nümbrecht",
        "full_address": "Akeleiweg, 51588 Nümbrecht"
      }
    },
    {
      "type": "Feature",
      "geometry": {
        "type": "Point",
        "coordinates": [
          7.5327243,
          50.9017368
        ]
      },
      "properties": {
        "street": "Arnikaweg",
        "house_number": "",
        "postal_code": "51588",
        "city": "Nümbrecht",
        "full_address": "Arnikaweg, 51588 Nümbrecht"
      }
    },
    {
      "type": "Feature",
      "geometry": {
        "type": "Point",
        "coordinates": [
          7.5330299,
          50.9012113
        ]
      },
      "properties": {
        "street": "Fingerhutweg",
        "house_number": "",
        "postal_code": "51588",
        "city": "Nümbrecht",
        "full_address": "Fingerhutweg, 51588 Nümbrecht"
      }
    },
    {
      "type": "Feature",
      "geometry": {
        "type": "Point",
        "coordinates": [
          7.5323643,
          50.9023403
        ]
      },
      "properties": {
        "street": "Goldnesselweg",
        "house_number": "",
        "postal_code": "51588",
        "city": "Nümbrecht",
        "full_address": "Goldnesselweg, 51588 Nümbrecht"
      }
    },
    {
      "type": "Feature",
      "geometry": {
        "type": "Point",
        "coordinates": [
          7.5333604,
          50.8982713
        ]
      },
      "properties": {
        "street": "Holunderweg",
        "house_number": "",
        "postal_code": "51588",
        "city": "Nümbrecht",
        "full_address": "Holunderweg, 51588 Nümbrecht"
      }
    },
    {
      "type": "Feature",
      "geometry": {
        "type": "Point",
        "coordinates": [
          7.5347881,
          50.8996112
        ]
      },
      "properties": {
        "street": "Lupinenweg",
        "house_number": "",
        "postal_code": "51588",
        "city": "Nümbrecht",
        "full_address": "Lupinenweg, 51588 Nümbrecht"
      }
    },
    {
      "type": "Feature",
      "geometry": {
        "type": "Point",
        "coordinates": [
          7.532058,
          50.902156
        ]
      },
      "properties": {
        "street": "Maiglöckchenweg",
        "house_number": "",
        "postal_code": "51588",
        "city": "Nümbrecht",
        "full_address": "Maiglöckchenweg, 51588 Nümbrecht"
      }
    },
    {
      "type": "Feature",
      "geometry": {
        "type": "Point",
        "coordinates": [
          7.5329861,
          50.9018758
        ]
      },
      "properties": {
        "street": "Margeritenweg",
        "house_number": "",
        "postal_code": "51588",
        "city": "Nümbrecht",
        "full_address": "Margeritenweg, 51588 Nümbrecht"
      }
    },
    {
      "type": "Feature",
      "geometry": {
        "type": "Point",
        "coordinates": [
          7.5351828,
          50.9019175
        ]
      },
      "properties": {
        "street": "Mohnweg",
        "house_number": "",
        "postal_code": "51588",
        "city": "Nümbrecht",
        "full_address": "Mohnweg, 51588 Nümbrecht"
      }
    },
    {
      "type": "Feature",
      "geometry": {
        "type": "Point",
        "coordinates": [
          7.5361382,
          50.8994564
        ]
      },
      "properties": {
        "street": "Narzissenweg",
        "house_number": "",
        "postal_code": "51588",
        "city": "Nümbrecht",
        "full_address": "Narzissenweg, 51588 Nümbrecht"
      }
    },
    {
      "type": "Feature",
      "geometry": {
        "type": "Point",
        "coordinates": [
          7.5369443,
          50.8997293
        ]
      },
      "properties": {
        "street": "Orchideenweg",
        "house_number": "",
        "postal_code": "51588",
        "city": "Nümbrecht",
        "full_address": "Orchideenweg, 51588 Nümbrecht"
      }
    },
    {
      "type": "Feature",
      "geometry": {
        "type": "Point",
        "coordinates": [
          7.5368298,
          50.9011471
        ]
      },
      "properties": {
        "street": "Schlüsselblumenweg",
        "house_number": "",
        "postal_code": "51588",
        "city": "Nümbrecht",
        "full_address": "Schlüsselblumenweg, 51588 Nümbrecht"
      }
    },
    {
      "type": "Feature",
      "geometry": {
        "type": "Point",
        "coordinates": [
          7.5386394,
          50.9006075
        ]
      },
      "properties": {
        "street": "Schmiedeweg",
        "house_number": "",
        "postal_code": "51588",
        "city": "Nümbrecht",
        "full_address": "Schmiedeweg, 51588 Nümbrecht"
      }
    },
    {
      "type": "Feature",
      "geometry": {
        "type": "Point",
        "coordinates": [
          7.5350121,
          50.9010308
        ]
      },
      "properties": {
        "street": "Thymianweg",
        "house_number": "",
        "postal_code": "51588",
        "city": "Nümbrecht",
        "full_address": "Thymianweg, 51588 Nümbrecht"
      }
    },
    {
      "type": "Feature",
      "geometry": {
        "type": "Point",
        "coordinates": [
          7.5327291,
          50.9025612
        ]
      },
      "properties": {
        "street": "Veilchenweg",
        "house_number": "",
        "postal_code": "51588",
        "city": "Nümbrecht",
        "full_address": "Veilchenweg, 51588 Nümbrecht"
      }
    },
    {
      "type": "Feature",
      "geometry": {
        "type": "Point",
        "coordinates": [
          7.5337845,
          50.8992156
        ]
      },
      "properties": {
        "street": "Wildrosenweg",
        "house_number": "",
        "postal_code": "51588",
        "city": "Nümbrecht",
        "full_address": "Wildrosenweg, 51588 Nümbrecht"
      }
    },
    {
      "type": "Feature",
      "geometry": {
        "type": "Point",
        "coordinates": [
          7.5409481,
          50.9033978
        ]
      },
      "properties": {
        "street": "Göpring",
        "house_number": "",
        "postal_code": "51588",
        "city": "Nümbrecht",
        "full_address": "Göpring, 51588 Nümbrecht"
      }
    },
    {
      "type": "Feature",
      "geometry": {
        "type": "Point",
        "coordinates": [
          7.5533574,
          50.9307522
        ]
      },
      "properties": {
        "street": "Ahornweg",
        "house_number": "",
        "postal_code": "51588",
        "city": "Nümbrecht",
        "full_address": "Ahornweg, 51588 Nümbrecht"
      }
    },
    {
      "type": "Feature",
      "geometry": {
        "type": "Point",
        "coordinates": [
          7.5497417,
          50.9292726
        ]
      },
      "properties": {
        "street": "Denkmalweg",
        "house_number": "",
        "postal_code": "51588",
        "city": "Nümbrecht",
        "full_address": "Denkmalweg, 51588 Nümbrecht"
      }
    },
    {
      "type": "Feature",
      "geometry": {
        "type": "Point",
        "coordinates": [
          7.5530392,
          50.9276417
        ]
      },
      "properties": {
        "street": "Drosselweg",
        "house_number": "",
        "postal_code": "51588",
        "city": "Nümbrecht",
        "full_address": "Drosselweg, 51588 Nümbrecht"
      }
    },
    {
      "type": "Feature",
      "geometry": {
        "type": "Point",
        "coordinates": [
          7.550061,
          50.9346658
        ]
      },
      "properties": {
        "street": "Eichenweg",
        "house_number": "",
        "postal_code": "51588",
        "city": "Nümbrecht",
        "full_address": "Eichenweg, 51588 Nümbrecht"
      }
    },
    {
      "type": "Feature",
      "geometry": {
        "type": "Point",
        "coordinates": [
          7.5531785,
          50.9338417
        ]
      },
      "properties": {
        "street": "Jürgesweg",
        "house_number": "",
        "postal_code": "51588",
        "city": "Nümbrecht",
        "full_address": "Jürgesweg, 51588 Nümbrecht"
      }
    },
    {
      "type": "Feature",
      "geometry": {
        "type": "Point",
        "coordinates": [
          7.5549689,
          50.9311354
        ]
      },
      "properties": {
        "street": "Kirschbaumweg",
        "house_number": "",
        "postal_code": "51588",
        "city": "Nümbrecht",
        "full_address": "Kirschbaumweg, 51588 Nümbrecht"
      }
    },
    {
      "type": "Feature",
      "geometry": {
        "type": "Point",
        "coordinates": [
          7.5521083,
          50.9268715
        ]
      },
      "properties": {
        "street": "Meisenweg",
        "house_number": "",
        "postal_code": "51588",
        "city": "Nümbrecht",
        "full_address": "Meisenweg, 51588 Nümbrecht"
      }
    },
    {
      "type": "Feature",
      "geometry": {
        "type": "Point",
        "coordinates": [
          7.5501742,
          50.9241987
        ]
      },
      "properties": {
        "street": "Mühlenweg",
        "house_number": "",
        "postal_code": "51588",
        "city": "Nümbrecht",
        "full_address": "Mühlenweg, 51588 Nümbrecht"
      }
    },
    {
      "type": "Feature",
      "geometry": {
        "type": "Point",
        "coordinates": [
          7.5523718,
          50.9332235
        ]
      },
      "properties": {
        "street": "Seinscheweg",
        "house_number": "",
        "postal_code": "51588",
        "city": "Nümbrecht",
        "full_address": "Seinscheweg, 51588 Nümbrecht"
      }
    },
    {
      "type": "Feature",
      "geometry": {
        "type": "Point",
        "coordinates": [
          7.5505137,
          50.9263286
        ]
      },
      "properties": {
        "street": "Starenweg",
        "house_number": "",
        "postal_code": "51588",
        "city": "Nümbrecht",
        "full_address": "Starenweg, 51588 Nümbrecht"
      }
    },
    {
      "type": "Feature",
      "geometry": {
        "type": "Point",
        "coordinates": [
          7.5544018,
          50.9345166
        ]
      },
      "properties": {
        "street": "Stollenweg",
        "house_number": "",
        "postal_code": "51588",
        "city": "Nümbrecht",
        "full_address": "Stollenweg, 51588 Nümbrecht"
      }
    },
    {
      "type": "Feature",
      "geometry": {
        "type": "Point",
        "coordinates": [
          7.5511704,
          50.9271295
        ]
      },
      "properties": {
        "street": "Taubenweg",
        "house_number": "",
        "postal_code": "51588",
        "city": "Nümbrecht",
        "full_address": "Taubenweg, 51588 Nümbrecht"
      }
    },
    {
      "type": "Feature",
      "geometry": {
        "type": "Point",
        "coordinates": [
          7.5561357,
          50.9310767
        ]
      },
      "properties": {
        "street": "Backhausweg",
        "house_number": "",
        "postal_code": "51588",
        "city": "Nümbrecht",
        "full_address": "Backhausweg, 51588 Nümbrecht"
      }
    },
    {
      "type": "Feature",
      "geometry": {
        "type": "Point",
        "coordinates": [
          7.5552685,
          50.9262708
        ]
      },
      "properties": {
        "street": "Bachstelzenweg",
        "house_number": "",
        "postal_code": "51588",
        "city": "Nümbrecht",
        "full_address": "Bachstelzenweg, 51588 Nümbrecht"
      }
    },
    {
      "type": "Feature",
      "geometry": {
        "type": "Point",
        "coordinates": [
          7.5586862,
          50.9314382
        ]
      },
      "properties": {
        "street": "Freibadstraße",
        "house_number": "",
        "postal_code": "51588",
        "city": "Nümbrecht",
        "full_address": "Freibadstraße, 51588 Nümbrecht"
      }
    },
    {
      "type": "Feature",
      "geometry": {
        "type": "Point",
        "coordinates": [
          7.5552516,
          50.9295388
        ]
      },
      "properties": {
        "street": "Feuerwehrstraße",
        "house_number": "",
        "postal_code": "51588",
        "city": "Nümbrecht",
        "full_address": "Feuerwehrstraße, 51588 Nümbrecht"
      }
    },
    {
      "type": "Feature",
      "geometry": {
        "type": "Point",
        "coordinates": [
          7.5596645,
          50.9272876
        ]
      },
      "properties": {
        "street": "Kalksteinstraße",
        "house_number": "",
        "postal_code": "51588",
        "city": "Nümbrecht",
        "full_address": "Kalksteinstraße, 51588 Nümbrecht"
      }
    },
    {
      "type": "Feature",
      "geometry": {
        "type": "Point",
        "coordinates": [
          7.5652782,
          50.9312354
        ]
      },
      "properties": {
        "street": "Kiefernweg",
        "house_number": "",
        "postal_code": "51588",
        "city": "Nümbrecht",
        "full_address": "Kiefernweg, 51588 Nümbrecht"
      }
    },
    {
      "type": "Feature",
      "geometry": {
        "type": "Point",
        "coordinates": [
          7.556641,
          50.9318558
        ]
      },
      "properties": {
        "street": "Lindenweg",
        "house_number": "",
        "postal_code": "51588",
        "city": "Nümbrecht",
        "full_address": "Lindenweg, 51588 Nümbrecht"
      }
    },
    {
      "type": "Feature",
      "geometry": {
        "type": "Point",
        "coordinates": [
          7.5540626,
          50.9242424
        ]
      },
      "properties": {
        "street": "Talstraße",
        "house_number": "",
        "postal_code": "51588",
        "city": "Nümbrecht",
        "full_address": "Talstraße, 51588 Nümbrecht"
      }
    },
    {
      "type": "Feature",
      "geometry": {
        "type": "Point",
        "coordinates": [
          7.5614316,
          50.9290406
        ]
      },
      "properties": {
        "street": "Weißdornweg",
        "house_number": "",
        "postal_code": "51588",
        "city": "Nümbrecht",
        "full_address": "Weißdornweg, 51588 Nümbrecht"
      }
    },
    {
      "type": "Feature",
      "geometry": {
        "type": "Point",
        "coordinates": [
          7.585114,
          50.9039214
        ]
      },
      "properties": {
        "street": "Mühlenbergweg",
        "house_number": "",
        "postal_code": "51588",
        "city": "Nümbrecht",
        "full_address": "Mühlenbergweg, 51588 Nümbrecht"
      }
    },
    {
      "type": "Feature",
      "geometry": {
        "type": "Point",
        "coordinates": [
          7.5409481,
          50.9033978
        ]
      },
      "properties": {
        "street": "Gering",
        "house_number": "",
        "postal_code": "51588",
        "city": "Nümbrecht",
        "full_address": "Gering, 51588 Nümbrecht"
      }
    },
    {
      "type": "Feature",
      "geometry": {
        "type": "Point",
        "coordinates": [
          7.5409481,
          50.9033978
        ]
      },
      "properties": {
        "street": "Hochstraße",
        "house_number": "",
        "postal_code": "51588",
        "city": "Nümbrecht",
        "full_address": "Hochstraße, 51588 Nümbrecht"
      }
    }
  ]
}